{
  "config": {
    "homebase": { "name": "Hyatt Regency San Antonio Riverwalk", "lat": 29.4255945, "lng": -98.4882006 },
    "radiusMiles": 2
  },
  "categories": {
    "homebase":   { "label": "Hotel",        "color": "#E8956D", "icon": "home" },
    "attractions":{ "label": "Things to Do", "color": "#5B8DB8", "icon": "landmark" },
    "food":       { "label": "Food & Drink", "color": "#7BA67B", "icon": "utensils" },
    "nightlife":  { "label": "Bars",         "color": "#8B7BAB", "icon": "music" }
  },
  "locations": [
    { "name": "Hyatt Regency San Antonio Riverwalk", "cat": "homebase", "lat": 29.4255945, "lng": -98.4882006, "star": false, "note": "Home base for the weekend. Directly on the Riverwalk, steps from everything downtown.", "tags": ["hotel", "homebase", "riverwalk"], "address": "123 Losoya St" },

    { "name": "Alamodome", "cat": "attractions", "lat": 29.4169834, "lng": -98.4788143, "star": true, "note": "Main event — Ye concert, Saturday July 4 at 9 PM. Tickets in hand. Major sports and concert venue about a mile southeast of the Riverwalk.", "tags": ["concert venue", "stadium", "sports", "arena", "kanye", "ye", "ye concert", "events"], "address": "100 Montana St" },
    { "name": "Frost Bank Center", "cat": "attractions", "lat": 29.4270201, "lng": -98.4374652, "star": false, "note": "Home of the San Antonio Spurs (NBA). Also hosts major concerts and the annual San Antonio Stock Show & Rodeo. East of downtown, about 2 miles from the hotel.", "tags": ["spurs", "nba", "basketball", "arena", "concert venue", "rodeo", "stock show"], "address": "1 Frost Bank Center Dr" },
    { "name": "Toyota Field", "cat": "attractions", "lat": 29.5393991, "lng": -98.3945676, "star": false, "note": "Home of San Antonio FC (USL Championship soccer). Smaller stadium on the north side, about 10 miles from downtown.", "tags": ["soccer", "san antonio fc", "usl", "stadium", "sports"], "address": "5106 David Edwards Dr" },
    { "name": "Nelson W. Wolff Municipal Stadium", "cat": "attractions", "lat": 29.409021, "lng": -98.601061, "star": false, "note": "Home of the San Antonio Missions (MiLB, Padres affiliate). Retro ballpark feel on the west side, about 7 miles from downtown.", "tags": ["baseball", "minor league", "missions", "milb", "padres affiliate", "ballpark", "sports"], "address": "5757 US-90" },

    { "name": "The Alamo", "cat": "attractions", "lat": 29.4259671, "lng": -98.4861419, "star": false, "note": "The most iconic landmark in Texas — site of the 1836 battle. Free to enter, right on Alamo Plaza a short walk from the hotel. Worth a look even if history isn't your thing.", "tags": ["historic landmark", "history", "texas history", "battle of the alamo", "free", "mission", "tourist attraction"], "address": "300 Alamo Plaza" },
    { "name": "San Antonio Museum of Art", "cat": "attractions", "lat": 29.4372761, "lng": -98.4821898, "star": false, "note": "Riverside art museum with a collection spanning 5,000 years. Sits on the Museum Reach section of the River Walk — reachable by water taxi. Free the first Sunday of every month.", "tags": ["art museum", "museum", "fine art", "riverside", "water taxi", "culture"], "address": "200 W Jones Ave" },
    { "name": "Hopscotch", "cat": "attractions", "lat": 29.4281505, "lng": -98.4900422, "star": false, "note": "Immersive digital art experience with a full bar inside. Walkable from the hotel and Riverwalk. Good pre-night-out stop.", "tags": ["immersive art", "digital art", "bar", "art experience", "instagrammable"], "address": "711 Navarro St Ste 100" },
    { "name": "Witte Museum", "cat": "attractions", "lat": 29.461978, "lng": -98.4669496, "star": false, "note": "Natural history and Texas heritage museum in Brackenridge Park. Dinosaurs, nature, and deep Texas history. About 3 miles north of downtown.", "tags": ["natural history museum", "museum", "dinosaurs", "texas heritage", "science", "kids", "family"], "address": "3801 Broadway" },
    { "name": "San Antonio Zoo", "cat": "attractions", "lat": 29.4635835, "lng": -98.4725926, "star": false, "note": "One of the top-rated zoos in the country, set in Brackenridge Park. About 3 miles north of downtown. Open daily 9am–5pm.", "tags": ["zoo", "animals", "family", "wildlife"], "address": "3903 N St Mary's St" },
    { "name": "Ruby City", "cat": "attractions", "lat": 29.4130089, "lng": -98.501875, "star": false, "note": "Contemporary art museum with free admission in Southtown, near the Blue Star arts complex. Rotating exhibitions in a striking jewel-like building designed by David Adjaye.", "tags": ["contemporary art", "art museum", "free admission", "southtown", "gallery"], "address": "150 Camp St" },
    { "name": "Aztec Theatre", "cat": "attractions", "lat": 29.4247856, "lng": -98.4910964, "star": false, "note": "Historic 1920s movie palace converted into one of SA's best live-music venues. On the river, walkable from the hotel.", "tags": ["live music venue", "concert hall", "historic theatre", "movie palace", "music"], "address": "104 N St Mary's St" },
    { "name": "Hog Wild Records", "cat": "attractions", "lat": 29.4469216, "lng": -98.4941195, "star": false, "note": "Long-running SA record shop on Main Ave with a deep catalog of vinyl and CDs. Good browse for diggers.", "tags": ["record store", "vinyl", "cds", "music shop", "record shop"], "address": "1824 N Main Ave" },

    { "name": "Pinkerton's Barbecue", "cat": "food", "lat": 29.4271376, "lng": -98.4941288, "star": false, "note": "Acclaimed Texas BBQ on Houston St, walkable from the hotel. Expect a line — go early or right at opening.", "tags": ["bbq", "barbecue", "texas bbq", "brisket", "smoked meat", "lunch"], "address": "107 W Houston St" },
    { "name": "Curry Boys BBQ", "cat": "food", "lat": 29.4478582, "lng": -98.4880409, "star": false, "note": "Thai-BBQ fusion near St. Mary's Strip, highly rated. A mashup of Thai flavors and smoked meats that works better than it sounds.", "tags": ["bbq", "barbecue", "thai", "thai bbq", "fusion", "smoked meat"], "address": "536 E Courtland Pl" },
    { "name": "2M Smokehouse", "cat": "food", "lat": 29.3824943, "lng": -98.4049277, "star": false, "note": "Beloved South Texas BBQ on the southeast side. Thu–Sun only, lunch hours, frequently sells out — go early.", "tags": ["bbq", "barbecue", "texas bbq", "brisket", "smoked meat"], "address": "2731 S WW White Rd" },
    { "name": "DeeWillie's BBQ", "cat": "food", "lat": 29.5500424, "lng": -98.3753341, "star": false, "note": "BBQ and live music on the northeast side. Laid-back afternoon smoke session with a neighborhood feel.", "tags": ["bbq", "barbecue", "smoked meat", "live music"], "address": "12130 O'Connor Rd" },
    { "name": "Los Trompos Tacos de Barrio", "cat": "food", "lat": 29.4841359, "lng": -98.5598784, "star": false, "note": "Trompo/al pastor tacos on the west side, dinner hours. Classic SA street-style tacos done right.", "tags": ["tacos", "mexican", "al pastor", "trompo", "street tacos", "dinner"], "address": "2715 Hillcrest Dr" },
    { "name": "Taquitos West Avenue", "cat": "food", "lat": 29.4863828, "lng": -98.5258383, "star": false, "note": "Classic old-school taqueria open until 3 AM Fri/Sat with honor-system ordering. The go-to late-night taco stop.", "tags": ["tacos", "mexican", "late night", "taqueria", "street tacos"], "address": "2818 West Ave" },
    { "name": "Con Huevos Tacos", "cat": "food", "lat": 29.4253072, "lng": -98.47192, "star": false, "note": "Breakfast and brunch tacos just east of downtown on Houston St. Morning only — closes at 2 PM.", "tags": ["tacos", "breakfast tacos", "brunch", "mexican", "morning"], "address": "1629 E Houston St" },
    { "name": "Q Kitchen Bar", "cat": "food", "lat": 29.4255706, "lng": -98.4883652, "star": false, "note": "The Hyatt's own restaurant — American diner-style, open breakfast through late, with live music. Literally steps from the room.", "tags": ["american", "diner", "breakfast", "brunch", "hotel restaurant", "live music"], "address": "123 Losoya St" },
    { "name": "Boudro's on the Riverwalk", "cat": "food", "lat": 29.4240604, "lng": -98.4883378, "star": false, "note": "Riverwalk classic with Tex-Mex, tableside guac, and prickly pear margaritas. 4.5 stars — reservations recommended.", "tags": ["tex-mex", "mexican", "riverwalk", "margaritas", "guacamole", "dinner"], "address": "421 E Commerce St" },
    { "name": "Rita's on the River", "cat": "food", "lat": 29.4246701, "lng": -98.4900392, "star": false, "note": "Tex-Mex right on the river with a festive patio and big margaritas. 4.6 stars, closed Sundays.", "tags": ["tex-mex", "mexican", "riverwalk", "margaritas", "patio"], "address": "245 E Commerce St" },
    { "name": "Domingo Restaurant", "cat": "food", "lat": 29.4248277, "lng": -98.4915921, "star": false, "note": "Modern Mexican in the Canopy hotel, strong for breakfast, brunch, and tacos. 4.7 stars.", "tags": ["mexican", "modern mexican", "breakfast", "brunch", "tacos", "hotel restaurant"], "address": "123 N St Mary's St" },
    { "name": "Biga on the Banks", "cat": "food", "lat": 29.423704, "lng": -98.492007, "star": false, "note": "Upscale New American fine dining on the river, dinner only. The special-occasion spot of the trip — 4.7 stars.", "tags": ["new american", "fine dining", "upscale", "riverwalk", "dinner", "special occasion"], "address": "203 S St Mary's St" },
    { "name": "Stout's Signature", "cat": "food", "lat": 29.4303836, "lng": -98.4872103, "star": false, "note": "Steak and cocktail bar near the river, dinner only, closed Sundays. 4.9 stars — highest-rated restaurant on the map.", "tags": ["steakhouse", "steak", "cocktail bar", "upscale", "dinner", "fine dining"], "address": "207 4th St" },
    { "name": "Four Brothers", "cat": "food", "lat": 29.4253454, "lng": -98.4905526, "star": false, "note": "New American with riverfront tables, all-day hours, and live guitar. Relaxed vibe on the museum reach of the river.", "tags": ["new american", "riverwalk", "live music", "casual dining"], "address": "112 College St" },
    { "name": "Pinoy Tambayan", "cat": "food", "lat": 29.4481989, "lng": -98.5538814, "star": false, "note": "Filipino street food on the west side, open until 4 AM with karaoke. The late-night option when everything else is closed.", "tags": ["filipino", "street food", "late night", "karaoke"], "address": "2751 Culebra Rd" },
    { "name": "The Golden Goose", "cat": "food", "lat": 29.4263369, "lng": -98.49755, "star": false, "note": "Korean/Japanese spot downtown with kiosk ordering and late hours. Good cheap eat after a night out.", "tags": ["korean", "japanese", "asian fusion", "late night", "kiosk ordering", "cheap eats"], "address": "100 N Santa Rosa St #140" },
    { "name": "Pelicana Chicken", "cat": "food", "lat": 29.5639013, "lng": -98.6009029, "star": false, "note": "Korean fried chicken on the north side (De Zavala). A solid late-night wing run.", "tags": ["korean fried chicken", "korean", "wings", "late night", "fried chicken"], "address": "5999 De Zavala Rd #123" },
    { "name": "Kaedama Battleship", "cat": "food", "lat": 29.4263142, "lng": -98.4929289, "star": false, "note": "Ramen and Japanese comfort food on Houston St, walkable from the hotel. Good pre-bar or late-night bowl.", "tags": ["ramen", "japanese", "noodles", "comfort food", "late night"], "address": "122 E Houston St Ste 103" },
    { "name": "La Panadería", "cat": "food", "lat": 29.5133521, "lng": -98.4665174, "star": false, "note": "Mexican bakery café on Broadway with exceptional pastries and breakfast. Good morning stop on the way to the zoo or Witte.", "tags": ["mexican bakery", "pastries", "breakfast", "cafe", "bread"], "address": "8305 Broadway" },
    { "name": "Chas Market and Kitchen", "cat": "food", "lat": 29.4375855, "lng": -98.470529, "star": false, "note": "Korean bodega and kitchen near the Pearl/Government Hill. Good for snacks, drinks, or a quick meal.", "tags": ["korean", "bodega", "snacks", "korean food", "convenience store"], "address": "1431 N Pine St" },
    { "name": "Golden Wok", "cat": "food", "lat": 29.5245521, "lng": -98.5678849, "star": false, "note": "Pan-Asian and dim sum in the Medical Center area on the northwest side. One of the better dim sum spots in SA.", "tags": ["pan-asian", "dim sum", "chinese", "asian"], "address": "8822 Wurzbach Rd" },
    { "name": "Neko Coffee & Plants", "cat": "food", "lat": 29.503554, "lng": -98.5586338, "star": false, "note": "Japanese coffee shop and plant store on Callaghan Rd. Distinctive vibe, good matcha and pour-overs.", "tags": ["japanese coffee", "coffee shop", "matcha", "cafe", "plant shop"], "address": "7460 Callaghan Rd Ste 202" },

    { "name": "Hugman's Oasis", "cat": "nightlife", "lat": 29.4249102, "lng": -98.4922428, "star": false, "note": "Downtown tiki bar with immersive theming and craft cocktails, walkable from the hotel. One of the more distinctive bar concepts in SA.", "tags": ["tiki bar", "cocktails", "themed bar", "downtown"], "address": "135 E Commerce St" },
    { "name": "Tenfold Rooftop", "cat": "nightlife", "lat": 29.4198158, "lng": -98.4885888, "star": false, "note": "4.9-star rooftop cocktail bar near the hotel on S. Alamo. Great views — strong pregame option.", "tags": ["rooftop bar", "cocktails", "views", "pregame"], "address": "431 S Alamo St" },
    { "name": "Anaqua Garden Bar", "cat": "nightlife", "lat": 29.418886, "lng": -98.4889185, "star": false, "note": "Lush garden and pool bar on S. Alamo with craft cocktails. 4.9 stars, one of the best-rated bars in the area.", "tags": ["garden bar", "pool bar", "cocktails", "outdoor"], "address": "555 S Alamo St" },
    { "name": "The Moon's Daughters", "cat": "nightlife", "lat": 29.4317933, "lng": -98.4891269, "star": false, "note": "20th-floor rooftop bar atop the Thompson hotel with city views and a DJ on weekends. Strong for a late-night cap.", "tags": ["rooftop bar", "dj", "city views", "late night"], "address": "115 Lexington Ave" },
    { "name": "Otro Bar", "cat": "nightlife", "lat": 29.4247672, "lng": -98.4915652, "star": false, "note": "Stylish riverside cocktail bar (4.9 stars) sharing the Canopy/Domingo space. Open late Fri/Sat.", "tags": ["cocktail bar", "riverside", "stylish", "late night"], "address": "123 N St Mary's St" },
    { "name": "Howl at the Moon", "cat": "nightlife", "lat": 29.42528, "lng": -98.4889198, "star": false, "note": "Dueling-pianos request bar on the Riverwalk with rowdy group energy. Perfect for a loud, fun night out.", "tags": ["dueling pianos", "piano bar", "live music", "riverwalk", "party"], "address": "111 W Crockett St #201" },
    { "name": "Wav Room", "cat": "nightlife", "lat": 29.4525765, "lng": -98.4846249, "star": false, "note": "Late-night dance club on the St. Mary's Strip. One of the main spots on the strip for dancing.", "tags": ["dance club", "nightclub", "dancing", "late night", "st mary's strip"], "address": "3000 N St Mary's St" },
    { "name": "Volta", "cat": "nightlife", "lat": 29.4430352, "lng": -98.4613708, "star": false, "note": "Intimate vinyl and cocktail bar with a retro vibe near the Pearl. Good for a quieter drink with good music.", "tags": ["vinyl bar", "cocktail bar", "retro", "intimate", "quiet drinks"], "address": "1522 E Grayson St" },
    { "name": "Maeve", "cat": "nightlife", "lat": 29.4371625, "lng": -98.4751366, "star": false, "note": "Open-air DJ and event bar near downtown with a cover charge on weekends. Known for a younger crowd and good production.", "tags": ["dj bar", "dance", "open-air", "cover charge", "young crowd"], "address": "818 Austin St" },
    { "name": "The Lonesome Rose", "cat": "nightlife", "lat": 29.4458566, "lng": -98.4859474, "star": false, "note": "Honky-tonk dive on the St. Mary's Strip with live music and cheap drinks. No frills, good energy.", "tags": ["honky-tonk", "dive bar", "live music", "country"], "address": "2114 N St Mary's St" },
    { "name": "Evil Olive", "cat": "nightlife", "lat": 29.5768777, "lng": -98.4411448, "star": false, "note": "Bar and grill on the north side (Thousand Oaks) with live music and karaoke. Drive-to destination — not walkable.", "tags": ["bar and grill", "live music", "karaoke", "north side"], "address": "2950 Thousand Oaks Dr Ste 5" },
    { "name": "Coco Beach", "cat": "nightlife", "lat": 29.5526891, "lng": -98.4975131, "star": false, "note": "Laid-back dive bar and club on the north side with a pool table. Very casual, cheap drinks.", "tags": ["dive bar", "pool table", "club", "casual"], "address": "12159 Valliant St" },
    { "name": "Charlie Brown's Neighborhood Bar & Grill", "cat": "nightlife", "lat": 29.5480193, "lng": -98.4610771, "star": false, "note": "Sports bar on the north side with darts and pool. Low-key neighborhood vibe.", "tags": ["sports bar", "darts", "pool", "neighborhood bar"], "address": "11888 Starcrest Dr #101" },
    { "name": "The Hangar Bar & Grill", "cat": "nightlife", "lat": 29.5115994, "lng": -98.4666292, "star": false, "note": "Bar and grill on Broadway with karaoke and trivia nights. Good hang in the Alamo Heights corridor.", "tags": ["bar and grill", "karaoke", "trivia"], "address": "8203 Broadway" },
    { "name": "Schooners", "cat": "nightlife", "lat": 29.51685, "lng": -98.4471667, "star": false, "note": "Dive sports bar near the NE 410 loop with darts and pool. No-frills neighborhood bar.", "tags": ["dive bar", "sports bar", "darts", "pool"], "address": "1325 NE Interstate 410 Loop" },
    { "name": "The Rusty Nail", "cat": "nightlife", "lat": 29.4266911, "lng": -98.796741, "star": false, "note": "Neighborhood bar and food on the far west side off Potranco Rd. Far from downtown — Uber territory.", "tags": ["neighborhood bar", "west side", "casual"], "address": "15122 Potranco Rd #103" },

    { "name": "River Walk / Downtown", "cat": "zones", "lat": 29.4246, "lng": -98.4861, "star": false, "radius": 0.65, "note": "Central hub: bars, dining, the main artery.", "tags": ["riverwalk", "downtown"], "address": "San Antonio River Walk" },
    { "name": "Alamo Plaza", "cat": "zones", "lat": 29.4259, "lng": -98.4861, "star": false, "radius": 0.3, "note": "The Alamo + historic tourist cluster.", "tags": ["alamo", "historic district"], "address": "Alamo Plaza" },
    { "name": "Houston St / E. Commerce", "cat": "zones", "lat": 29.425, "lng": -98.488, "star": false, "radius": 0.35, "note": "Downtown bar and club stretch.", "tags": ["downtown", "bars"], "address": "Houston St, San Antonio" },
    { "name": "St. Mary's Strip", "cat": "zones", "lat": 29.44, "lng": -98.503, "star": false, "radius": 0.4, "note": "The city's main bar / live-music strip.", "tags": ["bar strip", "live music"], "address": "St. Mary's St, San Antonio" },
    { "name": "The Pearl", "cat": "zones", "lat": 29.4422, "lng": -98.4794, "star": false, "radius": 0.4, "note": "Upscale food hall, brewery, trendy bars.", "tags": ["food hall", "brewery", "upscale"], "address": "Pearl Pkwy, San Antonio" },
    { "name": "Southtown / Blue Star", "cat": "zones", "lat": 29.4147, "lng": -98.4888, "star": false, "radius": 0.5, "note": "Arts district, craft cocktails, breweries.", "tags": ["arts district", "breweries"], "address": "Southtown, San Antonio" },
    { "name": "Historic Market Square", "cat": "zones", "lat": 29.4254, "lng": -98.4999, "star": false, "radius": 0.3, "note": "El Mercado, Tex-Mex, shopping.", "tags": ["el mercado", "tex-mex", "shopping"], "address": "514 W Commerce St" },
    { "name": "Broadway / Alamo Heights", "cat": "zones", "lat": 29.473, "lng": -98.4625, "star": false, "radius": 0.55, "note": "Broadway corridor: bars, restaurants, museums, the zoo.", "tags": ["broadway", "museums", "zoo"], "address": "Broadway, San Antonio" },
    { "name": "Thousand Oaks / North Side", "cat": "zones", "lat": 29.565, "lng": -98.448, "star": false, "radius": 0.7, "note": "North-side neighborhood bars & grills.", "tags": ["north side", "neighborhood bars"], "address": "Thousand Oaks Dr, San Antonio" }
  ]
}
